$GPGGA,134548.412,4713.401,N,00849.147,E,1,12,1.0,0.0,M,0.0,M,,*65
$GPGSA,A,3,01,02,03,04,05,06,07,08,09,10,11,12,1.0,1.0,1.0*30
$GPRMC,134548.412,A,4713.401,N,00849.147,E,001.0,112.8,190220,000.0,W*72
$GPGGA,134549.412,4713.401,N,00849.147,E,1,12,1.0,0.0,M,0.0,M,,*64
$GPGSA,A,3,01,02,03,04,05,06,07,08,09,10,11,12,1.0,1.0,1.0*30
$GPRMC,134549.412,A,4713.401,N,00849.147,E,001.0,112.8,190220,000.0,W*73
$GPGGA,134550.412,4713.400,N,00849.148,E,1,12,1.0,0.0,M,0.0,M,,*62
$GPGSA,A,3,01,02,03,04,05,06,07,08,09,10,11,12,1.0,1.0,1.0*30
$GPRMC,134550.412,A,4713.400,N,00849.148,E,001.0,112.8,190220,000.0,W*75
$GPGGA,134551.412,4713.400,N,00849.148,E,1,12,1.0,0.0,M,0.0,M,,*63
$GPGSA,A,3,01,02,03,04,05,06,07,08,09,10,11,12,1.0,1.0,1.0*30
$GPRMC,134551.412,A,4713.400,N,00849.148,E,001.0,112.8,190220,000.0,W*74
$GPGGA,134552.412,4713.400,N,00849.148,E,1,12,1.0,0.0,M,0.0,M,,*60
$GPGSA,A,3,01,02,03,04,05,06,07,08,09,10,11,12,1.0,1.0,1.0*30
$GPRMC,134552.412,A,4713.400,N,00849.148,E,001.0,112.8,190220,000.0,W*77
$GPGGA,134553.412,4713.400,N,00849.149,E,1,12,1.0,0.0,M,0.0,M,,*60
$GPGSA,A,3,01,02,03,04,05,06,07,08,09,10,11,12,1.0,1.0,1.0*30
$GPRMC,134553.412,A,4713.400,N,00849.149,E,001.0,112.8,190220,000.0,W*77
$GPGGA,134554.412,4713.400,N,00849.149,E,1,12,1.0,0.0,M,0.0,M,,*67
$GPGSA,A,3,01,02,03,04,05,06,07,08,09,10,11,12,1.0,1.0,1.0*30
$GPRMC,134554.412,A,4713.400,N,00849.149,E,001.0,112.8,190220,000.0,W*70
$GPGGA,134555.412,4713.400,N,00849.149,E,1,12,1.0,0.0,M,0.0,M,,*66
$GPGSA,A,3,01,02,03,04,05,06,07,08,09,10,11,12,1.0,1.0,1.0*30
$GPRMC,134555.412,A,4713.400,N,00849.149,E,001.0,112.8,190220,000.0,W*71
$GPGGA,134556.412,4713.400,N,00849.150,E,1,12,1.0,0.0,M,0.0,M,,*6D
$GPGSA,A,3,01,02,03,04,05,06,07,08,09,10,11,12,1.0,1.0,1.0*30
$GPRMC,134556.412,A,4713.400,N,00849.150,E,001.0,112.8,190220,000.0,W*7A
$GPGGA,134557.412,4713.400,N,00849.150,E,1,12,1.0,0.0,M,0.0,M,,*6C
$GPGSA,A,3,01,02,03,04,05,06,07,08,09,10,11,12,1.0,1.0,1.0*30
$GPRMC,134557.412,A,4713.400,N,00849.150,E,001.0,112.8,190220,000.0,W*7B
$GPGGA,134558.412,4713.399,N,00849.150,E,1,12,1.0,0.0,M,0.0,M,,*64
$GPGSA,A,3,01,02,03,04,05,06,07,08,09,10,11,12,1.0,1.0,1.0*30
$GPRMC,134558.412,A,4713.399,N,00849.150,E,001.0,112.8,190220,000.0,W*73
$GPGGA,134559.412,4713.399,N,00849.151,E,1,12,1.0,0.0,M,0.0,M,,*64
$GPGSA,A,3,01,02,03,04,05,06,07,08,09,10,11,12,1.0,1.0,1.0*30
$GPRMC,134559.412,A,4713.399,N,00849.151,E,001.0,112.8,190220,000.0,W*73
$GPGGA,134600.412,4713.399,N,00849.151,E,1,12,1.0,0.0,M,0.0,M,,*6B
$GPGSA,A,3,01,02,03,04,05,06,07,08,09,10,11,12,1.0,1.0,1.0*30
$GPRMC,134600.412,A,4713.399,N,00849.151,E,001.0,112.8,190220,000.0,W*7C
$GPGGA,134601.412,4713.399,N,00849.151,E,1,12,1.0,0.0,M,0.0,M,,*6A
$GPGSA,A,3,01,02,03,04,05,06,07,08,09,10,11,12,1.0,1.0,1.0*30
$GPRMC,134601.412,A,4713.399,N,00849.151,E,001.0,112.8,190220,000.0,W*7D
$GPGGA,134602.412,4713.399,N,00849.152,E,1,12,1.0,0.0,M,0.0,M,,*6A
$GPGSA,A,3,01,02,03,04,05,06,07,08,09,10,11,12,1.0,1.0,1.0*30
$GPRMC,134602.412,A,4713.399,N,00849.152,E,001.0,112.8,190220,000.0,W*7D
$GPGGA,134603.412,4713.399,N,00849.152,E,1,12,1.0,0.0,M,0.0,M,,*6B
$GPGSA,A,3,01,02,03,04,05,06,07,08,09,10,11,12,1.0,1.0,1.0*30
$GPRMC,134603.412,A,4713.399,N,00849.152,E,001.0,112.8,190220,000.0,W*7C
$GPGGA,134604.412,4713.399,N,00849.152,E,1,12,1.0,0.0,M,0.0,M,,*6C
$GPGSA,A,3,01,02,03,04,05,06,07,08,09,10,11,12,1.0,1.0,1.0*30
$GPRMC,134604.412,A,4713.399,N,00849.152,E,001.0,112.8,190220,000.0,W*7B
$GPGGA,134605.412,4713.398,N,00849.153,E,1,12,1.0,0.0,M,0.0,M,,*6D
$GPGSA,A,3,01,02,03,04,05,06,07,08,09,10,11,12,1.0,1.0,1.0*30
$GPRMC,134605.412,A,4713.398,N,00849.153,E,001.0,112.8,190220,000.0,W*7A
$GPGGA,134606.412,4713.398,N,00849.153,E,1,12,1.0,0.0,M,0.0,M,,*6E
$GPGSA,A,3,01,02,03,04,05,06,07,08,09,10,11,12,1.0,1.0,1.0*30
$GPRMC,134606.412,A,4713.398,N,00849.153,E,001.0,177.6,190220,000.0,W*74
$GPGGA,134607.412,4713.398,N,00849.153,E,1,12,1.0,0.0,M,0.0,M,,*6F
$GPGSA,A,3,01,02,03,04,05,06,07,08,09,10,11,12,1.0,1.0,1.0*30
$GPRMC,134607.412,A,4713.398,N,00849.153,E,001.0,177.6,190220,000.0,W*75
$GPGGA,134608.412,4713.398,N,00849.153,E,1,12,1.0,0.0,M,0.0,M,,*60
$GPGSA,A,3,01,02,03,04,05,06,07,08,09,10,11,12,1.0,1.0,1.0*30
$GPRMC,134608.412,A,4713.398,N,00849.153,E,001.0,177.6,190220,000.0,W*7A
$GPGGA,134609.412,4713.397,N,00849.153,E,1,12,1.0,0.0,M,0.0,M,,*6E
$GPGSA,A,3,01,02,03,04,05,06,07,08,09,10,11,12,1.0,1.0,1.0*30
$GPRMC,134609.412,A,4713.397,N,00849.153,E,001.0,177.6,190220,000.0,W*74
$GPGGA,134610.412,4713.397,N,00849.153,E,1,12,1.0,0.0,M,0.0,M,,*66
$GPGSA,A,3,01,02,03,04,05,06,07,08,09,10,11,12,1.0,1.0,1.0*30
$GPRMC,134610.412,A,4713.397,N,00849.153,E,001.0,177.6,190220,000.0,W*7C
$GPGGA,134611.412,4713.397,N,00849.153,E,1,12,1.0,0.0,M,0.0,M,,*67
$GPGSA,A,3,01,02,03,04,05,06,07,08,09,10,11,12,1.0,1.0,1.0*30
$GPRMC,134611.412,A,4713.397,N,00849.153,E,001.0,177.6,190220,000.0,W*7D
$GPGGA,134612.412,4713.397,N,00849.153,E,1,12,1.0,0.0,M,0.0,M,,*64
$GPGSA,A,3,01,02,03,04,05,06,07,08,09,10,11,12,1.0,1.0,1.0*30
$GPRMC,134612.412,A,4713.397,N,00849.153,E,001.0,177.6,190220,000.0,W*7E
$GPGGA,134613.412,4713.396,N,00849.153,E,1,12,1.0,0.0,M,0.0,M,,*64
$GPGSA,A,3,01,02,03,04,05,06,07,08,09,10,11,12,1.0,1.0,1.0*30
$GPRMC,134613.412,A,4713.396,N,00849.153,E,001.0,177.6,190220,000.0,W*7E
$GPGGA,134614.412,4713.396,N,00849.153,E,1,12,1.0,0.0,M,0.0,M,,*63
$GPGSA,A,3,01,02,03,04,05,06,07,08,09,10,11,12,1.0,1.0,1.0*30
$GPRMC,134614.412,A,4713.396,N,00849.153,E,001.0,177.6,190220,000.0,W*79
$GPGGA,134615.412,4713.396,N,00849.153,E,1,12,1.0,0.0,M,0.0,M,,*62
$GPGSA,A,3,01,02,03,04,05,06,07,08,09,10,11,12,1.0,1.0,1.0*30
$GPRMC,134615.412,A,4713.396,N,00849.153,E,001.0,177.6,190220,000.0,W*78
$GPGGA,134616.412,4713.396,N,00849.153,E,1,12,1.0,0.0,M,0.0,M,,*61
$GPGSA,A,3,01,02,03,04,05,06,07,08,09,10,11,12,1.0,1.0,1.0*30
$GPRMC,134616.412,A,4713.396,N,00849.153,E,001.0,177.6,190220,000.0,W*7B
$GPGGA,134617.412,4713.395,N,00849.153,E,1,12,1.0,0.0,M,0.0,M,,*63
$GPGSA,A,3,01,02,03,04,05,06,07,08,09,10,11,12,1.0,1.0,1.0*30
$GPRMC,134617.412,A,4713.395,N,00849.153,E,001.0,177.6,190220,000.0,W*79
$GPGGA,134618.412,4713.395,N,00849.153,E,1,12,1.0,0.0,M,0.0,M,,*6C
$GPGSA,A,3,01,02,03,04,05,06,07,08,09,10,11,12,1.0,1.0,1.0*30
$GPRMC,134618.412,A,4713.395,N,00849.153,E,001.0,177.6,190220,000.0,W*76
$GPGGA,134619.412,4713.395,N,00849.153,E,1,12,1.0,0.0,M,0.0,M,,*6D
$GPGSA,A,3,01,02,03,04,05,06,07,08,09,10,11,12,1.0,1.0,1.0*30
$GPRMC,134619.412,A,4713.395,N,00849.153,E,001.0,177.6,190220,000.0,W*77
$GPGGA,134620.412,4713.394,N,00849.153,E,1,12,1.0,0.0,M,0.0,M,,*66
$GPGSA,A,3,01,02,03,04,05,06,07,08,09,10,11,12,1.0,1.0,1.0*30
$GPRMC,134620.412,A,4713.394,N,00849.153,E,001.0,177.6,190220,000.0,W*7C
$GPGGA,134621.412,4713.394,N,00849.153,E,1,12,1.0,0.0,M,0.0,M,,*67
$GPGSA,A,3,01,02,03,04,05,06,07,08,09,10,11,12,1.0,1.0,1.0*30
$GPRMC,134621.412,A,4713.394,N,00849.153,E,001.0,177.6,190220,000.0,W*7D
$GPGGA,134622.412,4713.394,N,00849.153,E,1,12,1.0,0.0,M,0.0,M,,*64
$GPGSA,A,3,01,02,03,04,05,06,07,08,09,10,11,12,1.0,1.0,1.0*30
$GPRMC,134622.412,A,4713.394,N,00849.153,E,001.0,225.7,190220,000.0,W*7B
$GPGGA,134623.412,4713.394,N,00849.153,E,1,12,1.0,0.0,M,0.0,M,,*65
$GPGSA,A,3,01,02,03,04,05,06,07,08,09,10,11,12,1.0,1.0,1.0*30
$GPRMC,134623.412,A,4713.394,N,00849.153,E,001.0,225.7,190220,000.0,W*7A
$GPGGA,134624.412,4713.393,N,00849.153,E,1,12,1.0,0.0,M,0.0,M,,*65
$GPGSA,A,3,01,02,03,04,05,06,07,08,09,10,11,12,1.0,1.0,1.0*30
$GPRMC,134624.412,A,4713.393,N,00849.153,E,001.0,225.7,190220,000.0,W*7A
$GPGGA,134625.412,4713.393,N,00849.153,E,1,12,1.0,0.0,M,0.0,M,,*64
$GPGSA,A,3,01,02,03,04,05,06,07,08,09,10,11,12,1.0,1.0,1.0*30
$GPRMC,134625.412,A,4713.393,N,00849.153,E,001.0,225.7,190220,000.0,W*7B
$GPGGA,134626.412,4713.393,N,00849.152,E,1,12,1.0,0.0,M,0.0,M,,*66
$GPGSA,A,3,01,02,03,04,05,06,07,08,09,10,11,12,1.0,1.0,1.0*30
$GPRMC,134626.412,A,4713.393,N,00849.152,E,001.0,225.7,190220,000.0,W*79
$GPGGA,134627.412,4713.393,N,00849.152,E,1,12,1.0,0.0,M,0.0,M,,*67
$GPGSA,A,3,01,02,03,04,05,06,07,08,09,10,11,12,1.0,1.0,1.0*30
$GPRMC,134627.412,A,4713.393,N,00849.152,E,001.0,225.7,190220,000.0,W*78
$GPGGA,134628.412,4713.393,N,00849.152,E,1,12,1.0,0.0,M,0.0,M,,*68
$GPGSA,A,3,01,02,03,04,05,06,07,08,09,10,11,12,1.0,1.0,1.0*30
$GPRMC,134628.412,A,4713.393,N,00849.152,E,001.0,225.7,190220,000.0,W*77
$GPGGA,134629.412,4713.392,N,00849.152,E,1,12,1.0,0.0,M,0.0,M,,*68
$GPGSA,A,3,01,02,03,04,05,06,07,08,09,10,11,12,1.0,1.0,1.0*30
$GPRMC,134629.412,A,4713.392,N,00849.152,E,001.0,225.7,190220,000.0,W*77
$GPGGA,134630.412,4713.392,N,00849.151,E,1,12,1.0,0.0,M,0.0,M,,*63
$GPGSA,A,3,01,02,03,04,05,06,07,08,09,10,11,12,1.0,1.0,1.0*30
$GPRMC,134630.412,A,4713.392,N,00849.151,E,001.0,225.7,190220,000.0,W*7C
$GPGGA,134631.412,4713.392,N,00849.151,E,1,12,1.0,0.0,M,0.0,M,,*62
$GPGSA,A,3,01,02,03,04,05,06,07,08,09,10,11,12,1.0,1.0,1.0*30
$GPRMC,134631.412,A,4713.392,N,00849.151,E,001.0,225.7,190220,000.0,W*7D
$GPGGA,134632.412,4713.392,N,00849.151,E,1,12,1.0,0.0,M,0.0,M,,*61
$GPGSA,A,3,01,02,03,04,05,06,07,08,09,10,11,12,1.0,1.0,1.0*30
$GPRMC,134632.412,A,4713.392,N,00849.151,E,001.0,225.7,190220,000.0,W*7E
$GPGGA,134633.412,4713.391,N,00849.151,E,1,12,1.0,0.0,M,0.0,M,,*63
$GPGSA,A,3,01,02,03,04,05,06,07,08,09,10,11,12,1.0,1.0,1.0*30
$GPRMC,134633.412,A,4713.391,N,00849.151,E,001.0,225.7,190220,000.0,W*7C
$GPGGA,134634.412,4713.391,N,00849.151,E,1,12,1.0,0.0,M,0.0,M,,*64
$GPGSA,A,3,01,02,03,04,05,06,07,08,09,10,11,12,1.0,1.0,1.0*30
$GPRMC,134634.412,A,4713.391,N,00849.151,E,001.0,225.7,190220,000.0,W*7B
$GPGGA,134635.412,4713.391,N,00849.150,E,1,12,1.0,0.0,M,0.0,M,,*64
$GPGSA,A,3,01,02,03,04,05,06,07,08,09,10,11,12,1.0,1.0,1.0*30
$GPRMC,134635.412,A,4713.391,N,00849.150,E,001.0,225.7,190220,000.0,W*7B
$GPGGA,134636.412,4713.391,N,00849.150,E,1,12,1.0,0.0,M,0.0,M,,*67
$GPGSA,A,3,01,02,03,04,05,06,07,08,09,10,11,12,1.0,1.0,1.0*30
$GPRMC,134636.412,A,4713.391,N,00849.150,E,001.0,225.7,190220,000.0,W*78
$GPGGA,134637.412,4713.391,N,00849.150,E,1,12,1.0,0.0,M,0.0,M,,*66
$GPGSA,A,3,01,02,03,04,05,06,07,08,09,10,11,12,1.0,1.0,1.0*30
$GPRMC,134637.412,A,4713.391,N,00849.150,E,001.0,225.7,190220,000.0,W*79
$GPGGA,134638.412,4713.390,N,00849.150,E,1,12,1.0,0.0,M,0.0,M,,*68
$GPGSA,A,3,01,02,03,04,05,06,07,08,09,10,11,12,1.0,1.0,1.0*30
$GPRMC,134638.412,A,4713.390,N,00849.150,E,001.0,225.7,190220,000.0,W*77
$GPGGA,134639.412,4713.390,N,00849.149,E,1,12,1.0,0.0,M,0.0,M,,*61
$GPGSA,A,3,01,02,03,04,05,06,07,08,09,10,11,12,1.0,1.0,1.0*30
$GPRMC,134639.412,A,4713.390,N,00849.149,E,001.0,225.7,190220,000.0,W*7E
$GPGGA,134640.412,4713.390,N,00849.149,E,1,12,1.0,0.0,M,0.0,M,,*6F
$GPGSA,A,3,01,02,03,04,05,06,07,08,09,10,11,12,1.0,1.0,1.0*30
$GPRMC,134640.412,A,4713.390,N,00849.149,E,001.0,245.8,190220,000.0,W*79
$GPGGA,134641.412,4713.390,N,00849.149,E,1,12,1.0,0.0,M,0.0,M,,*6E
$GPGSA,A,3,01,02,03,04,05,06,07,08,09,10,11,12,1.0,1.0,1.0*30
$GPRMC,134641.412,A,4713.390,N,00849.149,E,001.0,245.8,190220,000.0,W*78
$GPGGA,134642.412,4713.390,N,00849.149,E,1,12,1.0,0.0,M,0.0,M,,*6D
$GPGSA,A,3,01,02,03,04,05,06,07,08,09,10,11,12,1.0,1.0,1.0*30
$GPRMC,134642.412,A,4713.390,N,00849.149,E,001.0,245.8,190220,000.0,W*7B
$GPGGA,134643.412,4713.389,N,00849.148,E,1,12,1.0,0.0,M,0.0,M,,*65
$GPGSA,A,3,01,02,03,04,05,06,07,08,09,10,11,12,1.0,1.0,1.0*30
$GPRMC,134643.412,A,4713.389,N,00849.148,E,001.0,245.8,190220,000.0,W*73
$GPGGA,134644.412,4713.389,N,00849.148,E,1,12,1.0,0.0,M,0.0,M,,*62
$GPGSA,A,3,01,02,03,04,05,06,07,08,09,10,11,12,1.0,1.0,1.0*30
$GPRMC,134644.412,A,4713.389,N,00849.148,E,001.0,245.8,190220,000.0,W*74
$GPGGA,134645.412,4713.389,N,00849.148,E,1,12,1.0,0.0,M,0.0,M,,*63
$GPGSA,A,3,01,02,03,04,05,06,07,08,09,10,11,12,1.0,1.0,1.0*30
$GPRMC,134645.412,A,4713.389,N,00849.148,E,001.0,245.8,190220,000.0,W*75
$GPGGA,134646.412,4713.389,N,00849.147,E,1,12,1.0,0.0,M,0.0,M,,*6F
$GPGSA,A,3,01,02,03,04,05,06,07,08,09,10,11,12,1.0,1.0,1.0*30
$GPRMC,134646.412,A,4713.389,N,00849.147,E,001.0,245.8,190220,000.0,W*79
$GPGGA,134647.412,4713.389,N,00849.147,E,1,12,1.0,0.0,M,0.0,M,,*6E
$GPGSA,A,3,01,02,03,04,05,06,07,08,09,10,11,12,1.0,1.0,1.0*30
$GPRMC,134647.412,A,4713.389,N,00849.147,E,001.0,245.8,190220,000.0,W*78
$GPGGA,134648.412,4713.389,N,00849.147,E,1,12,1.0,0.0,M,0.0,M,,*61
$GPGSA,A,3,01,02,03,04,05,06,07,08,09,10,11,12,1.0,1.0,1.0*30
$GPRMC,134648.412,A,4713.389,N,00849.147,E,001.0,245.8,190220,000.0,W*77
$GPGGA,134649.412,4713.389,N,00849.146,E,1,12,1.0,0.0,M,0.0,M,,*61
$GPGSA,A,3,01,02,03,04,05,06,07,08,09,10,11,12,1.0,1.0,1.0*30
$GPRMC,134649.412,A,4713.389,N,00849.146,E,001.0,245.8,190220,000.0,W*77
$GPGGA,134650.412,4713.388,N,00849.146,E,1,12,1.0,0.0,M,0.0,M,,*68
$GPGSA,A,3,01,02,03,04,05,06,07,08,09,10,11,12,1.0,1.0,1.0*30
$GPRMC,134650.412,A,4713.388,N,00849.146,E,001.0,245.8,190220,000.0,W*7E
$GPGGA,134651.412,4713.388,N,00849.146,E,1,12,1.0,0.0,M,0.0,M,,*69
$GPGSA,A,3,01,02,03,04,05,06,07,08,09,10,11,12,1.0,1.0,1.0*30
$GPRMC,134651.412,A,4713.388,N,00849.146,E,001.0,245.8,190220,000.0,W*7F
$GPGGA,134652.412,4713.388,N,00849.145,E,1,12,1.0,0.0,M,0.0,M,,*69
$GPGSA,A,3,01,02,03,04,05,06,07,08,09,10,11,12,1.0,1.0,1.0*30
$GPRMC,134652.412,A,4713.388,N,00849.145,E,001.0,245.8,190220,000.0,W*7F
$GPGGA,134653.412,4713.388,N,00849.145,E,1,12,1.0,0.0,M,0.0,M,,*68
$GPGSA,A,3,01,02,03,04,05,06,07,08,09,10,11,12,1.0,1.0,1.0*30
$GPRMC,134653.412,A,4713.388,N,00849.145,E,001.0,245.8,190220,000.0,W*7E
$GPGGA,134654.412,4713.388,N,00849.145,E,1,12,1.0,0.0,M,0.0,M,,*6F
$GPGSA,A,3,01,02,03,04,05,06,07,08,09,10,11,12,1.0,1.0,1.0*30
$GPRMC,134654.412,A,4713.388,N,00849.145,E,001.0,245.8,190220,000.0,W*79
$GPGGA,134655.412,4713.388,N,00849.144,E,1,12,1.0,0.0,M,0.0,M,,*6F
$GPGSA,A,3,01,02,03,04,05,06,07,08,09,10,11,12,1.0,1.0,1.0*30
$GPRMC,134655.412,A,4713.388,N,00849.144,E,001.0,245.8,190220,000.0,W*79
$GPGGA,134656.412,4713.388,N,00849.144,E,1,12,1.0,0.0,M,0.0,M,,*6C
$GPGSA,A,3,01,02,03,04,05,06,07,08,09,10,11,12,1.0,1.0,1.0*30
$GPRMC,134656.412,A,4713.388,N,00849.144,E,001.0,245.8,190220,000.0,W*7A
$GPGGA,134657.412,4713.387,N,00849.144,E,1,12,1.0,0.0,M,0.0,M,,*62
$GPGSA,A,3,01,02,03,04,05,06,07,08,09,10,11,12,1.0,1.0,1.0*30
$GPRMC,134657.412,A,4713.387,N,00849.144,E,001.0,245.8,190220,000.0,W*74
$GPGGA,134658.412,4713.387,N,00849.143,E,1,12,1.0,0.0,M,0.0,M,,*6A
$GPGSA,A,3,01,02,03,04,05,06,07,08,09,10,11,12,1.0,1.0,1.0*30
$GPRMC,134658.412,A,4713.387,N,00849.143,E,001.0,245.8,190220,000.0,W*7C
